{
  "cities": [
    {
      "id": "a9ac",
      "cityName": "Sangli",
      "country": "India",
      "emoji": "ðŸ‡®ðŸ‡³",
      "date": "2024-09-27T12:06:29.322Z",
      "notes": "My city ",
      "position": {
        "lat": "16.87814699473217",
        "lng": "74.63562011718751"
      }
    },
    {
      "id": "4123",
      "cityName": "Pune",
      "country": "India",
      "emoji": "ðŸ‡®ðŸ‡³",
      "date": "2024-09-27T12:28:27.108Z",
      "notes": "Railway",
      "position": {
        "lat": "18.535606511943122",
        "lng": "73.87069702148439"
      }
    },
    {
      "id": "74c7",
      "cityName": "Kitikmeot, Unorganized",
      "country": "Canada",
      "emoji": "ðŸ‡¨ðŸ‡¦",
      "date": "2024-09-29T08:11:34.347Z",
      "notes": "",
      "position": {
        "lat": "65.80277639340238",
        "lng": "-110.03906250000001"
      }
    },
    {
      "id": "cea5",
      "cityName": "Cuatro Cienegas",
      "country": "Mexico",
      "emoji": "ðŸ‡²ðŸ‡½",
      "date": "2024-09-29T08:11:48.811Z",
      "notes": "",
      "position": {
        "lat": "26.745610382199022",
        "lng": "-102.65625000000001"
      }
    },
    {
      "id": "0243",
      "cityName": "Santiago",
      "country": "Chile",
      "emoji": "ðŸ‡¨ðŸ‡±",
      "date": "2024-09-29T08:12:04.134Z",
      "notes": "",
      "position": {
        "lat": "-33.504759069226075",
        "lng": "-70.83984375000001"
      }
    }
  ]
}